[{
    "name": "Canada",
    "lat": 56.130366,
    "lng": -106.346771
  },
  {
    "name": "Anguilla",
    "lat": 18.220554,
    "lng": -63.068615
  },
  {
    "name": "Barbados",
    "lat": 13.193887,
    "lng": -59.543198
  },
  {
    "name": "Ireland",
    "lat": 53.412910,
    "lng": -8.243890
  },
  {
    "name": "Scotland",
    "lat": 56.490671,
    "lng": -4.202646
  },
  {
    "name": "England",
    "lat": 52.355518,
    "lng": -1.174320
  },
  {
    "name": "France",
    "lat": 46.227638,
    "lng": 2.213749
  },
  {
    "name": "The Netherlands",
    "lat": 52.132633,
    "lng": 5.291266
  },
  {
    "name": "Switzerland",
    "lat": 46.818188,
    "lng": 8.227512
  },
  {
    "name": "South Africa",
    "lat": -30.559482,
    "lng": 22.937506
  },
  {
    "name": "Madagascar",
    "lat": -18.766947,
    "lng": 46.869107
  },
  {
    "name": "Taiwan",
    "lat": 23.697810,
    "lng": 120.960515
  },
  {
    "name": "Japan",
    "lat": 36.204824,
    "lng": 138.252924
  },
  {
    "name": "United States",
    "lat": 37.090240,
    "lng": -95.712891
  }
]
